[
    {"id": "1", "ville": "Tanger", "region": "1", "longitude": -5.800, "latitude": 35.759},
    {"id": "2", "ville": "Tetouan", "region": "1", "longitude": -5.360, "latitude": 35.578},
    {"id": "3", "ville": "Al Hoceima", "region": "1", "longitude": -3.930, "latitude": 35.250},
    {"id": "4", "ville": "Chefchaouen", "region": "1", "longitude": -5.270, "latitude": 35.170},

    {"id": "5", "ville": "Oujda", "region": "2", "longitude": -1.910, "latitude": 34.681},
    {"id": "6", "ville": "Nador", "region": "2", "longitude": -2.930, "latitude": 35.169},
    {"id": "7", "ville": "Berkane", "region": "2", "longitude": -2.320, "latitude": 34.920},

    {"id": "8", "ville": "Fes", "region": "3", "longitude": -4.999, "latitude": 34.018},
    {"id": "9", "ville": "Meknes", "region": "3", "longitude": -5.547, "latitude": 33.893},
    {"id": "10", "ville": "Ifrane", "region": "3", "longitude": -5.110, "latitude": 33.522},

    {"id": "11", "ville": "Rabat", "region": "4", "longitude": -6.832, "latitude": 34.020},
    {"id": "12", "ville": "Sale", "region": "4", "longitude": -6.798, "latitude": 34.053},
    {"id": "13", "ville": "Kenitra", "region": "4", "longitude": -6.580, "latitude": 34.261},
    {"id": "14", "ville": "Temara", "region": "4", "longitude": -6.910, "latitude": 33.927},

    {"id": "15", "ville": "Beni Mellal", "region": "5", "longitude": -6.349, "latitude": 32.339},
    {"id": "16", "ville": "Khenifra", "region": "5", "longitude": -5.667, "latitude": 32.934},

    {"id": "17", "ville": "Casablanca", "region": "6", "longitude": -7.589, "latitude": 33.573},
    {"id": "18", "ville": "Mohammedia", "region": "6", "longitude": -7.383, "latitude": 33.686},
    {"id": "19", "ville": "El Jadida", "region": "6", "longitude": -8.500, "latitude": 33.254},
    {"id": "20", "ville": "Settat", "region": "6", "longitude": -7.616, "latitude": 33.001},
    {"id": "21", "ville": "Berrechid", "region": "6", "longitude": -7.586, "latitude": 33.265},

    {"id": "22", "ville": "Marrakech", "region": "7", "longitude": -8.009, "latitude": 31.630},
    {"id": "23", "ville": "Safi", "region": "7", "longitude": -9.236, "latitude": 32.299},
    {"id": "24", "ville": "Essaouira", "region": "7", "longitude": -9.760, "latitude": 31.512},
    {"id": "25", "ville": "Chichaoua", "region": "7", "longitude": -8.703, "latitude": 31.536},

    {"id": "26", "ville": "Ouarzazate", "region": "8", "longitude": -6.893, "latitude": 30.919},
    {"id": "27", "ville": "Errachidia", "region": "8", "longitude": -4.340, "latitude": 31.931},
    {"id": "28", "ville": "Zagora", "region": "8", "longitude": -5.838, "latitude": 30.331},

    {"id": "29", "ville": "Agadir", "region": "9", "longitude": -9.598, "latitude": 30.427},
    {"id": "30", "ville": "Tiznit", "region": "9", "longitude": -9.152, "latitude": 29.697},
    {"id": "31", "ville": "Taroudant", "region": "9", "longitude": -8.876, "latitude": 30.471},

    {"id": "32", "ville": "Guelmim", "region": "10", "longitude": -10.002, "latitude": 28.982},

    {"id": "33", "ville": "Laayoune", "region": "11", "longitude": -13.203, "latitude": 27.153},

    {"id": "34", "ville": "Dakhla", "region": "12", "longitude": -15.936, "latitude": 23.713}
]
